{
  "deliveryPoints": [
    {
      "coordinates": [
        55.650784,
        37.579632
      ],
      "active": true,
      "address": {
        "appartment": "1",
        "building": "7",
        "country": "RU",
        "phone": "4 012 345 67 89",
        "streetName": "ул. Керченская",
        "streetNumber": "1",
        "townName": "Москва"
      },
      "displayName": "Дом",
      "partialPurchase": true,
      "name": "Дом"
    },
    {
      "coordinates": [
        55.689883,
        37.601916
      ],
      "active": true,
      "address": {
        "appartment": "2",
        "building": "2",
        "country": "RU",
        "phone": "4 098 765 43 21",
        "streetName": "ул. Большая Черёмушкинская",
        "streetNumber": "2",
        "townName": "Москва"
      },
      "displayName": "РИО",
      "partialPurchase": false,
      "name": "РИО"
    },
    {
      "coordinates": [
        55.714663,
        37.677380
      ],
      "active": true,
      "address": {
        "appartment": "2",
        "building": "38",
        "country": "RU",
        "phone": "4 098 765 43 21",
        "streetName": "ул. Шарикоподшипниковская",
        "streetNumber": "2",
        "townName": "Москва"
      },
      "displayName": "Офис",
      "partialPurchase": false,
      "name": "Офис"
    },
    {
      "coordinates": [
        55.618819,
        37.766924
      ],
      "active": true,
      "address": {
        "appartment": "2",
        "building": "30Б",
        "country": "RU",
        "phone": "4 098 765 43 21",
        "streetName": "Ореховый бульвар",
        "streetNumber": "2",
        "townName": "Москва"
      },
      "displayName": "Гараж",
      "partialPurchase": false,
      "name": "Гараж"
    }
  ]
}